$GPGGA,131105.000,,,,,0,0,,,M,,M,,*4F

utc: 131105.000
0.0
0.0
0.0
$GPGGA,131106.000,,,,,0,0,,,M,,M,,*4C

utc: 131106.000
0.0
0.0
0.0
$GPGGA,131107.000,,,,,0,0,,,M,,M,,*4D

utc: 131107.000
0.0
0.0
0.0
$GPGGA,131108.000,,,,,0,0,,,M,,M,,*42

utc: 131108.000
0.0
0.0
0.0
$GPGGA,131109.000,,,,,0,0,,,M,,M,,*43

utc: 131109.000
0.0
0.0
0.0
$GPGGA,131110.000,,,,,0,0,,,M,,M,,*4B

utc: 131110.000
0.0
0.0
0.0
$GPGGA,131111.000,,,,,0,0,,,M,,M,,*4A

utc: 131111.000
0.0
0.0
0.0
$GPGGA,131112.000,,,,,0,0,,,M,,M,,*49

utc: 131112.000
0.0
0.0
0.0
$GPGGA,131113.000,,,,,0,0,,,M,,M,,*48

utc: 131113.000
0.0
0.0
0.0
$GPGGA,131114.000,,,,,0,0,,,M,,M,,*4F

utc: 131114.000
0.0
0.0
0.0
$GPGGA,131115.000,,,,,0,0,,,M,,M,,*4E

utc: 131115.000
0.0
0.0
0.0
$GPGGA,131116.000,,,,,0,0,,,M,,M,,*4D

utc: 131116.000
0.0
0.0
0.0
$GPGGA,131117.000,,,,,0,0,,,M,,M,,*4C

utc: 131117.000
0.0
0.0
0.0
$GPGGA,131118.000,,,,,0,0,,,M,,M,,*43

utc: 131118.000
0.0
0.0
0.0
$GPGGA,131119.000,,,,,0,0,,,M,,M,,*42

utc: 131119.000
0.0
0.0
0.0
$GPGGA,131120.000,,,,,0,0,,,M,,M,,*48

utc: 131120.000
0.0
0.0
0.0
$GPGGA,131121.000,,,,,0,0,,,M,,M,,*49

utc: 131121.000
0.0
0.0
0.0
$GPGGA,131122.000,,,,,0,0,,,M,,M,,*4A

utc: 131122.000
0.0
0.0
0.0
$GPGGA,131123.000,,,,,0,0,,,M,,M,,*4B

utc: 131123.000
0.0
0.0
0.0
$GPGGA,131124.000,,,,,0,0,,,M,,M,,*4C

utc: 131124.000
0.0
0.0
0.0
$GPGGA,131125.000,,,,,0,0,,,M,,M,,*4D

utc: 131125.000
0.0
0.0
0.0
$GPGGA,131126.000,,,,,0,0,,,M,,M,,*4E

utc: 131126.000
0.0
0.0
0.0
$GPGGA,131127.000,,,,,0,0,,,M,,M,,*4F

utc: 131127.000
0.0
0.0
0.0
$GPGGA,131128.000,,,,,0,0,,,M,,M,,*40

utc: 131128.000
0.0
0.0
0.0
$GPGGA,131129.000,,,,,0,0,,,M,,M,,*41

utc: 131129.000
0.0
0.0
0.0
$GPGGA,131130.000,,,,,0,0,,,M,,M,,*49

utc: 131130.000
0.0
0.0
0.0
$GPGGA,131131.000,,,,,0,0,,,M,,M,,*48

utc: 131131.000
0.0
0.0
0.0
$GPGGA,131132.000,,,,,0,0,,,M,,M,,*4B

utc: 131132.000
0.0
0.0
0.0
$GPGGA,131133.000,,,,,0,0,,,M,,M,,*4A

utc: 131133.000
0.0
0.0
0.0
$GPGGA,131134.000,,,,,0,0,,,M,,M,,*4D

utc: 131134.000
0.0
0.0
0.0
$GPGGA,131135.000,,,,,0,0,,,M,,M,,*4C

utc: 131135.000
0.0
0.0
0.0
$GPGGA,131136.000,,,,,0,0,,,M,,M,,*4F

utc: 131136.000
0.0
0.0
0.0
$GPGGA,131137.000,,,,,0,0,,,M,,M,,*4E

utc: 131137.000
0.0
0.0
0.0
$GPGGA,131138.000,,,,,0,0,,,M,,M,,*41

utc: 131138.000
0.0
0.0
0.0
$GPGGA,131139.000,,,,,0,0,,,M,,M,,*40

utc: 131139.000
0.0
0.0
0.0
$GPGGA,131140.000,,,,,0,0,,,M,,M,,*4E

utc: 131140.000
0.0
0.0
0.0
$GPGGA,131141.000,,,,,0,0,,,M,,M,,*4F

utc: 131141.000
0.0
0.0
0.0
$GPGGA,131142.000,,,,,0,0,,,M,,M,,*4C

utc: 131142.000
0.0
0.0
0.0
$GPGGA,131143.000,,,,,0,0,,,M,,M,,*4D

utc: 131143.000
0.0
0.0
0.0
$GPGGA,131144.000,,,,,0,0,,,M,,M,,*4A

utc: 131144.000
0.0
0.0
0.0
$GPGGA,131145.000,,,,,0,0,,,M,,M,,*4B

utc: 131145.000
0.0
0.0
0.0
$GPGGA,131146.000,,,,,0,0,,,M,,M,,*48

utc: 131146.000
0.0
0.0
0.0
$GPGGA,131147.000,,,,,0,0,,,M,,M,,*49

utc: 131147.000
0.0
0.0
0.0
$GPGGA,131148.000,,,,,0,0,,,M,,M,,*46

utc: 131148.000
0.0
0.0
0.0
$GPGGA,131149.000,,,,,0,0,,,M,,M,,*47

utc: 131149.000
0.0
0.0
0.0
$GPGGA,131150.000,,,,,0,0,,,M,,M,,*4F

utc: 131150.000
0.0
0.0
0.0
$GPGGA,131151.000,,,,,0,0,,,M,,M,,*4E

utc: 131151.000
0.0
0.0
0.0
$GPGGA,131152.000,,,,,0,0,,,M,,M,,*4D

utc: 131152.000
0.0
0.0
0.0
$GPGGA,131153.000,,,,,0,0,,,M,,M,,*4C

utc: 131153.000
0.0
0.0
0.0
$GPGGA,131154.000,,,,,0,0,,,M,,M,,*4B

utc: 131154.000
0.0
0.0
0.0
$GPGGA,131155.000,,,,,0,0,,,M,,M,,*4A

utc: 131155.000
0.0
0.0
0.0
$GPGGA,131156.000,,,,,0,0,,,M,,M,,*49

utc: 131156.000
0.0
0.0
0.0
$GPGGA,131157.000,,,,,0,0,,,M,,M,,*48

utc: 131157.000
0.0
0.0
0.0
$GPGGA,131158.000,,,,,0,0,,,M,,M,,*47

utc: 131158.000
0.0
0.0
0.0
$GPGGA,131159.000,,,,,0,0,,,M,,M,,*46

utc: 131159.000
0.0
0.0
0.0
$GPGGA,131200.000,,,,,0,0,,,M,,M,,*49

utc: 131200.000
0.0
0.0
0.0
$GPGGA,131201.000,,,,,0,0,,,M,,M,,*48

utc: 131201.000
0.0
0.0
0.0
$GPGGA,131202.000,,,,,0,0,,,M,,M,,*4B

utc: 131202.000
0.0
0.0
0.0
$GPGGA,131203.000,,,,,0,0,,,M,,M,,*4A

utc: 131203.000
0.0
0.0
0.0
$GPGGA,131204.000,,,,,0,0,,,M,,M,,*4D

utc: 131204.000
0.0
0.0
0.0
$GPGGA,131205.000,,,,,0,0,,,M,,M,,*4C

utc: 131205.000
0.0
0.0
0.0
$GPGGA,131206.000,,,,,0,0,,,M,,M,,*4F

utc: 131206.000
0.0
0.0
0.0
$GPGGA,131207.000,,,,,0,0,,,M,,M,,*4E

utc: 131207.000
0.0
0.0
0.0
$GPGGA,131208.000,,,,,0,0,,,M,,M,,*41

utc: 131208.000
0.0
0.0
0.0
$GPGGA,131209.000,,,,,0,0,,,M,,M,,*40

utc: 131209.000
0.0
0.0
0.0
$GPGGA,131210.000,,,,,0,0,,,M,,M,,*48

utc: 131210.000
0.0
0.0
0.0
$GPGGA,131211.000,,,,,0,0,,,M,,M,,*49

utc: 131211.000
0.0
0.0
0.0
$GPGGA,131212.000,,,,,0,0,,,M,,M,,*4A

utc: 131212.000
0.0
0.0
0.0
$GPGGA,131213.000,,,,,0,0,,,M,,M,,*4B

utc: 131213.000
0.0
0.0
0.0
$GPGGA,131214.000,,,,,0,0,,,M,,M,,*4C

utc: 131214.000
0.0
0.0
0.0
$GPGGA,131215.000,,,,,0,0,,,M,,M,,*4D

utc: 131215.000
0.0
0.0
0.0
$GPGGA,131216.000,,,,,0,0,,,M,,M,,*4E

utc: 131216.000
0.0
0.0
0.0
$GPGGA,131217.000,,,,,0,0,,,M,,M,,*4F

utc: 131217.000
0.0
0.0
0.0
$GPGGA,131218.000,,,,,0,1,,,M,,M,,*41

utc: 131218.000
0.0
0.0
0.0
$GPGGA,131219.000,,,,,0,1,,,M,,M,,*40

utc: 131219.000
0.0
0.0
0.0
$GPGGA,131220.000,,,,,0,1,,,M,,M,,*4A

utc: 131220.000
0.0
0.0
0.0
$GPGGA,131221.000,,,,,0,1,,,M,,M,,*4B

utc: 131221.000
0.0
0.0
0.0
$GPGGA,131222.000,,,,,0,0,,,M,,M,,*49

utc: 131222.000
0.0
0.0
0.0
$GPGGA,131223.000,,,,,0,3,,,M,,M,,*4B

utc: 131223.000
0.0
0.0
0.0
$GPGGA,131224.000,,,,,0,3,,,M,,M,,*4C

utc: 131224.000
0.0
0.0
0.0
$GPGGA,131225.000,,,,,0,3,,,M,,M,,*4D

utc: 131225.000
0.0
0.0
0.0
$GPGGA,131226.000,,,,,0,3,,,M,,M,,*4E

utc: 131226.000
0.0
0.0
0.0
$GPGGA,131227.000,,,,,0,3,,,M,,M,,*4F

utc: 131227.000
0.0
0.0
0.0
$GPGGA,131228.000,,,,,0,3,,,M,,M,,*40

utc: 131228.000
0.0
0.0
0.0
$GPGGA,131229.000,,,,,0,3,,,M,,M,,*41

utc: 131229.000
0.0
0.0
0.0
$GPGGA,131230.000,,,,,0,3,,,M,,M,,*49

utc: 131230.000
0.0
0.0
0.0
$GPGGA,131231.000,,,,,0,3,,,M,,M,,*48

utc: 131231.000
0.0
0.0
0.0
$GPGGA,131232.000,,,,,0,3,,,M,,M,,*4B

utc: 131232.000
0.0
0.0
0.0
$GPGGA,131233.000,,,,,0,3,,,M,,M,,*4A

utc: 131233.000
0.0
0.0
0.0
$GPGGA,131234.000,,,,,0,3,,,M,,M,,*4D

utc: 131234.000
0.0
0.0
0.0
$GPGGA,131235.000,,,,,0,3,,,M,,M,,*4C

utc: 131235.000
0.0
0.0
0.0
$GPGGA,131236.000,,,,,0,3,,,M,,M,,*4F

utc: 131236.000
0.0
0.0
0.0
$GPGGA,131237.000,,,,,0,3,,,M,,M,,*4E

utc: 131237.000
0.0
0.0
0.0
$GPGGA,131238.000,,,,,0,3,,,M,,M,,*41

utc: 131238.000
0.0
0.0
0.0
$GPGGA,131239.000,,,,,0,3,,,M,,M,,*40

utc: 131239.000
0.0
0.0
0.0
$GPGGA,131240.000,,,,,0,3,,,M,,M,,*4E

utc: 131240.000
0.0
0.0
0.0
$GPGGA,131241.000,,,,,0,3,,,M,,M,,*4F

utc: 131241.000
0.0
0.0
0.0
$GPGGA,131242.000,,,,,0,3,,,M,,M,,*4C

utc: 131242.000
0.0
0.0
0.0
$GPGGA,131243.000,,,,,0,3,,,M,,M,,*4D

utc: 131243.000
0.0
0.0
0.0
$GPGGA,131244.000,,,,,0,3,,,M,,M,,*4A

utc: 131244.000
0.0
0.0
0.0
$GPGGA,131245.000,,,,,0,3,,,M,,M,,*4B

utc: 131245.000
0.0
0.0
0.0
$GPGGA,131246.000,,,,,0,3,,,M,,M,,*48

utc: 131246.000
0.0
0.0
0.0
$GPGGA,131247.000,,,,,0,3,,,M,,M,,*49

utc: 131247.000
0.0
0.0
0.0
$GPGGA,131248.000,,,,,0,3,,,M,,M,,*46

utc: 131248.000
0.0
0.0
0.0
$GPGGA,131249.000,,,,,0,3,,,M,,M,,*47

utc: 131249.000
0.0
0.0
0.0
$GPGGA,131250.000,,,,,0,3,,,M,,M,,*4F

utc: 131250.000
0.0
0.0
0.0
$GPGGA,131251.000,,,,,0,3,,,M,,M,,*4E

utc: 131251.000
0.0
0.0
0.0
$GPGGA,131252.000,,,,,0,3,,,M,,M,,*4D

utc: 131252.000
0.0
0.0
0.0
$GPGGA,131253.000,,,,,0,3,,,M,,M,,*4C

utc: 131253.000
0.0
0.0
0.0
$GPGGA,131254.000,,,,,0,3,,,M,,M,,*4B

utc: 131254.000
0.0
0.0
0.0
$GPGGA,131255.000,,,,,0,3,,,M,,M,,*4A

utc: 131255.000
0.0
0.0
0.0
$GPGGA,131256.000,,,,,0,3,,,M,,M,,*49

utc: 131256.000
0.0
0.0
0.0
$GPGGA,131257.000,,,,,0,3,,,M,,M,,*48

utc: 131257.000
0.0
0.0
0.0
$GPGGA,131258.000,,,,,0,3,,,M,,M,,*47

utc: 131258.000
0.0
0.0
0.0
$GPGGA,131259.000,,,,,0,3,,,M,,M,,*46

utc: 131259.000
0.0
0.0
0.0
$GPGGA,131300.000,,,,,0,3,,,M,,M,,*4B

utc: 131300.000
0.0
0.0
0.0
$GPGGA,131301.000,,,,,0,3,,,M,,M,,*4A

utc: 131301.000
0.0
0.0
0.0
$GPGGA,131302.000,,,,,0,3,,,M,,M,,*49

utc: 131302.000
0.0
0.0
0.0
$GPGGA,131303.000,,,,,0,3,,,M,,M,,*48

utc: 131303.000
0.0
0.0
0.0
$GPGGA,131304.000,,,,,0,3,,,M,,M,,*4F

utc: 131304.000
0.0
0.0
0.0
$GPGGA,131305.000,,,,,0,3,,,M,,M,,*4E

utc: 131305.000
0.0
0.0
0.0
$GPGGA,131306.000,,,,,0,3,,,M,,M,,*4D

utc: 131306.000
0.0
0.0
0.0
$GPGGA,131307.000,,,,,0,3,,,M,,M,,*4C

utc: 131307.000
0.0
0.0
0.0
$GPGGA,131308.000,,,,,0,4,,,M,,M,,*44

utc: 131308.000
0.0
0.0
0.0
$GPGGA,131309.000,4728.4416,N,01903.4762,E,1,4,2.00,44.7,M,41.1,M,,*62

utc: 131309.000
19.034762
47.284416
0.0
$GPGGA,131310.000,4728.4401,N,01903.4774,E,1,4,2.00,57.4,M,41.1,M,,*6A

utc: 131310.000
19.034774
47.284401
0.0
$GPGGA,131311.000,4728.4380,N,01903.4790,E,1,4,2.00,70.4,M,41.1,M,,*6A

utc: 131311.000
19.03479
47.28438
0.0
$GPGGA,131312.000,4728.4369,N,01903.4797,E,1,5,1.57,78.6,M,41.1,M,,*63

utc: 131312.000
19.034797
47.284369
0.0
$GPGGA,131313.000,4728.4377,N,01903.4795,E,1,5,1.57,73.9,M,41.1,M,,*6B

utc: 131313.000
19.034795
47.284377
0.0
$GPGGA,131314.000,4728.4383,N,01903.4793,E,1,5,1.57,70.0,M,41.1,M,,*6B

utc: 131314.000
19.034793
47.284383
0.0
$GPGGA,131315.000,4728.4386,N,01903.4788,E,1,5,1.57,68.1,M,41.1,M,,*6D

utc: 131315.000
19.034788
47.284386
0.0
$GPGGA,131316.000,4728.4387,N,01903.4785,E,1,5,1.57,67.5,M,41.1,M,,*69

utc: 131316.000
19.034785
47.284387
0.0
$GPGGA,131317.000,4728.4389,N,01903.4782,E,1,5,1.57,66.5,M,41.1,M,,*60

utc: 131317.000
19.034782
47.284389
0.0
$GPGGA,131318.000,4728.4390,N,01903.4780,E,1,5,1.57,66.7,M,41.1,M,,*67

utc: 131318.000
19.03478
47.28439
0.0
$GPGGA,131319.000,4728.4391,N,01903.4778,E,1,5,1.57,67.2,M,41.1,M,,*64

utc: 131319.000
19.034778
47.284391
0.0
$GPGGA,131320.000,4728.4393,N,01903.4776,E,1,5,1.57,67.5,M,41.1,M,,*65

utc: 131320.000
19.034776
47.284393
0.0
$GPGGA,131321.000,4728.4394,N,01903.4774,E,1,5,1.57,68.2,M,41.1,M,,*69

utc: 131321.000
19.034774
47.284394
0.0
$GPGGA,131322.000,4728.4393,N,01903.4774,E,1,5,1.57,69.9,M,41.1,M,,*67

utc: 131322.000
19.034774
47.284393
0.0
$GPGGA,131323.000,4728.4395,N,01903.4771,E,1,5,1.57,71.3,M,41.1,M,,*66

utc: 131323.000
19.034771
47.284395
0.0
$GPGGA,131324.000,4728.4393,N,01903.4772,E,1,5,1.69,73.8,M,41.1,M,,*60

utc: 131324.000
19.034772
47.284393
0.0
$GPGGA,131325.000,4728.4393,N,01903.4770,E,1,5,1.57,75.9,M,41.1,M,,*69

utc: 131325.000
19.03477
47.284393
0.0
$GPGGA,131326.000,4728.4394,N,01903.4770,E,1,5,1.69,76.6,M,41.1,M,,*6C

utc: 131326.000
19.03477
47.284394
0.0
$GPGGA,131327.000,4728.4394,N,01903.4770,E,1,5,1.69,77.6,M,41.1,M,,*6C

utc: 131327.000
19.03477
47.284394
0.0
$GPGGA,131328.000,4728.4391,N,01903.4769,E,1,5,1.57,79.5,M,41.1,M,,*6E

utc: 131328.000
19.034769
47.284391
0.0
$GPGGA,131329.000,4728.4388,N,01903.4769,E,1,5,1.69,81.0,M,41.1,M,,*68

utc: 131329.000
19.034769
47.284388
0.0
$GPGGA,131330.000,4728.4385,N,01903.4770,E,1,5,1.69,82.5,M,41.1,M,,*63

utc: 131330.000
19.03477
47.284385
0.0
$GPGGA,131331.000,4728.4384,N,01903.4770,E,1,6,1.18,83.6,M,41.1,M,,*64

utc: 131331.000
19.03477
47.284384
0.0
$GPGGA,131332.000,4728.4384,N,01903.4769,E,1,6,1.18,85.6,M,41.1,M,,*69

utc: 131332.000
19.034769
47.284384
0.0
$GPGGA,131333.000,4728.4379,N,01903.4769,E,1,6,1.18,87.2,M,41.1,M,,*6C

utc: 131333.000
19.034769
47.284379
0.0
$GPGGA,131334.000,4728.4375,N,01903.4766,E,1,6,1.18,88.4,M,41.1,M,,*61

utc: 131334.000
19.034766
47.284375
0.0
$GPGGA,131335.000,4728.4373,N,01903.4763,E,1,6,1.17,89.0,M,41.1,M,,*69

utc: 131335.000
19.034763
47.284373
0.0
$GPGGA,131336.000,4728.4371,N,01903.4763,E,1,6,1.17,89.1,M,41.1,M,,*69

utc: 131336.000
19.034763
47.284371
0.0
$GPGGA,131337.000,4728.4369,N,01903.4762,E,1,6,1.18,90.2,M,41.1,M,,*64

utc: 131337.000
19.034762
47.284369
0.0
$GPGGA,131338.000,4728.4365,N,01903.4760,E,1,6,1.18,91.8,M,41.1,M,,*6E

utc: 131338.000
19.03476
47.284365
0.0
$GPGGA,131339.000,4728.4362,N,01903.4758,E,1,6,1.17,93.5,M,41.1,M,,*63

utc: 131339.000
19.034758
47.284362
0.0
$GPGGA,131340.000,4728.4361,N,01903.4755,E,1,6,1.18,94.3,M,41.1,M,,*6D

utc: 131340.000
19.034755
47.284361
0.0
$GPGGA,131341.000,4728.4361,N,01903.4755,E,1,6,1.18,95.2,M,41.1,M,,*6C

utc: 131341.000
19.034755
47.284361
0.0
$GPGGA,131342.000,4728.4360,N,01903.4756,E,1,6,1.17,95.9,M,41.1,M,,*69

utc: 131342.000
19.034756
47.28436
0.0
$GPGGA,131343.000,4728.4360,N,01903.4756,E,1,6,1.17,95.9,M,41.1,M,,*68

utc: 131343.000
19.034756
47.28436
0.0
$GPGGA,131344.000,4728.4360,N,01903.4756,E,1,6,1.17,95.9,M,41.1,M,,*6F

utc: 131344.000
19.034756
47.28436
0.0
$GPGGA,131345.000,4728.4360,N,01903.4757,E,1,6,1.18,95.9,M,41.1,M,,*60

utc: 131345.000
19.034757
47.28436
0.0
$GPGGA,131346.000,4728.4360,N,01903.4757,E,1,6,1.17,95.9,M,41.1,M,,*6C

utc: 131346.000
19.034757
47.28436
0.0
$GPGGA,131347.000,4728.4360,N,01903.4756,E,1,6,1.18,96.0,M,41.1,M,,*69

utc: 131347.000
19.034756
47.28436
0.0
$GPGGA,131348.000,4728.4359,N,01903.4755,E,1,6,1.17,96.0,M,41.1,M,,*60

utc: 131348.000
19.034755
47.284359
0.0
$GPGGA,131349.000,4728.4359,N,01903.4755,E,1,6,1.18,96.0,M,41.1,M,,*6E

utc: 131349.000
19.034755
47.284359
0.0
$GPGGA,131350.000,4728.4358,N,01903.4754,E,1,6,1.17,96.0,M,41.1,M,,*69

utc: 131350.000
19.034754
47.284358
0.0
$GPGGA,131351.000,4728.4359,N,01903.4754,E,1,6,1.17,96.0,M,41.1,M,,*69

utc: 131351.000
19.034754
47.284359
0.0
$GPGGA,131352.000,4728.4360,N,01903.4753,E,1,6,1.25,96.0,M,41.1,M,,*66

utc: 131352.000
19.034753
47.28436
0.0
$GPGGA,131353.000,4728.4360,N,01903.4753,E,1,6,1.18,96.1,M,41.1,M,,*68

utc: 131353.000
19.034753
47.28436
0.0
$GPGGA,131354.000,4728.4360,N,01903.4752,E,1,6,1.17,96.1,M,41.1,M,,*61

utc: 131354.000
19.034752
47.28436
0.0
$GPGGA,131355.000,4728.4360,N,01903.4752,E,1,6,1.17,96.1,M,41.1,M,,*60

utc: 131355.000
19.034752
47.28436
0.0
$GPGGA,131356.000,4728.4360,N,01903.4752,E,1,6,1.17,96.1,M,41.1,M,,*63

utc: 131356.000
19.034752
47.28436
0.0
$GPGGA,131357.000,4728.4360,N,01903.4752,E,1,6,1.17,96.1,M,41.1,M,,*62

utc: 131357.000
19.034752
47.28436
0.0
$GPGGA,131358.000,4728.4360,N,01903.4752,E,1,6,1.17,96.1,M,41.1,M,,*6D

utc: 131358.000
19.034752
47.28436
0.0
$GPGGA,131359.000,4728.4360,N,01903.4753,E,1,6,1.17,96.1,M,41.1,M,,*6D

utc: 131359.000
19.034753
47.28436
0.0
$GPGGA,131400.000,4728.4360,N,01903.4752,E,1,6,1.17,96.1,M,41.1,M,,*67

utc: 131400.000
19.034752
47.28436
0.0
$GPGGA,131401.000,4728.4361,N,01903.4752,E,1,6,1.25,96.1,M,41.1,M,,*66

utc: 131401.000
19.034752
47.284361
0.0
$GPGGA,131402.000,4728.4361,N,01903.4753,E,1,6,1.17,96.1,M,41.1,M,,*65

utc: 131402.000
19.034753
47.284361
0.0
$GPGGA,131403.000,4728.4360,N,01903.4753,E,1,6,1.17,96.1,M,41.1,M,,*65

utc: 131403.000
19.034753
47.28436
0.0
$GPGGA,131404.000,4728.4361,N,01903.4753,E,1,6,1.17,96.2,M,41.1,M,,*60

utc: 131404.000
19.034753
47.284361
0.0
$GPGGA,131405.000,4728.4361,N,01903.4754,E,1,6,1.17,96.2,M,41.1,M,,*66

utc: 131405.000
19.034754
47.284361
0.0
$GPGGA,131406.000,4728.4361,N,01903.4755,E,1,6,1.17,96.2,M,41.1,M,,*64

utc: 131406.000
19.034755
47.284361
0.0
$GPGGA,131407.000,4728.4361,N,01903.4755,E,1,6,1.17,96.2,M,41.1,M,,*65

utc: 131407.000
19.034755
47.284361
0.0
$GPGGA,131408.000,4728.4362,N,01903.4756,E,1,6,1.17,96.3,M,41.1,M,,*6B

utc: 131408.000
19.034756
47.284362
0.0
$GPGGA,131409.000,4728.4363,N,01903.4757,E,1,6,1.17,96.3,M,41.1,M,,*6A

utc: 131409.000
19.034757
47.284363
0.0
$GPGGA,131410.000,4728.4363,N,01903.4757,E,1,6,1.17,96.3,M,41.1,M,,*62

utc: 131410.000
19.034757
47.284363
0.0
$GPGGA,131411.000,4728.4363,N,01903.4758,E,1,6,1.17,96.3,M,41.1,M,,*6C

utc: 131411.000
19.034758
47.284363
0.0
$GPGGA,131412.000,4728.4363,N,01903.4758,E,1,6,1.17,96.3,M,41.1,M,,*6F

utc: 131412.000
19.034758
47.284363
0.0
$GPGGA,131413.000,4728.4363,N,01903.4758,E,1,6,1.17,96.3,M,41.1,M,,*6E

utc: 131413.000
19.034758
47.284363
0.0
$GPGGA,131414.000,4728.4363,N,01903.4760,E,1,6,1.17,96.3,M,41.1,M,,*62

utc: 131414.000
19.03476
47.284363
0.0
$GPGGA,131415.000,4728.4363,N,01903.4760,E,1,6,1.17,96.3,M,41.1,M,,*63

utc: 131415.000
19.03476
47.284363
0.0
$GPGGA,131416.000,4728.4363,N,01903.4759,E,1,6,1.17,96.3,M,41.1,M,,*6A

utc: 131416.000
19.034759
47.284363
0.0
$GPGGA,131417.000,4728.4363,N,01903.4760,E,1,6,1.17,96.3,M,41.1,M,,*61

utc: 131417.000
19.03476
47.284363
0.0
$GPGGA,131418.000,4728.4363,N,01903.4759,E,1,6,1.17,96.3,M,41.1,M,,*64

utc: 131418.000
19.034759
47.284363
0.0
$GPGGA,131419.000,4728.4362,N,01903.4759,E,1,6,1.17,96.3,M,41.1,M,,*64

utc: 131419.000
19.034759
47.284362
0.0
$GPGGA,131420.000,4728.4361,N,01903.4757,E,1,6,1.17,96.3,M,41.1,M,,*63

utc: 131420.000
19.034757
47.284361
0.0
$GPGGA,131421.000,4728.4361,N,01903.4756,E,1,6,1.17,96.3,M,41.1,M,,*63

utc: 131421.000
19.034756
47.284361
0.0
$GPGGA,131422.000,4728.4362,N,01903.4756,E,1,6,1.17,96.3,M,41.1,M,,*63

utc: 131422.000
19.034756
47.284362
0.0
$GPGGA,131423.000,4728.4363,N,01903.4755,E,1,6,1.17,96.3,M,41.1,M,,*60

utc: 131423.000
19.034755
47.284363
0.0
$GPGGA,131424.000,4728.4363,N,01903.4755,E,1,6,1.17,96.3,M,41.1,M,,*67

utc: 131424.000
19.034755
47.284363
0.0
$GPGGA,131425.000,4728.4364,N,01903.4755,E,1,6,1.17,96.3,M,41.1,M,,*61

utc: 131425.000
19.034755
47.284364
0.0
$GPGGA,131426.000,4728.4365,N,01903.4755,E,1,6,1.25,96.2,M,41.1,M,,*63

utc: 131426.000
19.034755
47.284365
0.0
$GPGGA,131427.000,4728.4366,N,01903.4754,E,1,6,1.25,96.2,M,41.1,M,,*60

utc: 131427.000
19.034754
47.284366
0.0
$GPGGA,131428.000,4728.4366,N,01903.4755,E,1,6,1.25,96.2,M,41.1,M,,*6E

utc: 131428.000
19.034755
47.284366
0.0
$GPGGA,131429.000,4728.4367,N,01903.4755,E,1,6,1.25,96.2,M,41.1,M,,*6E

utc: 131429.000
19.034755
47.284367
0.0
$GPGGA,131430.000,4728.4369,N,01903.4748,E,1,6,1.25,95.8,M,41.1,M,,*6D

utc: 131430.000
19.034748
47.284369
0.0
$GPGGA,131431.000,4728.4371,N,01903.4748,E,1,7,1.06,95.8,M,41.1,M,,*65

utc: 131431.000
19.034748
47.284371
0.0
$GPGGA,131432.000,4728.4373,N,01903.4746,E,1,7,1.06,95.8,M,41.1,M,,*6A

utc: 131432.000
19.034746
47.284373
0.0
$GPGGA,131433.000,4728.4373,N,01903.4742,E,1,7,1.06,95.3,M,41.1,M,,*64

utc: 131433.000
19.034742
47.284373
0.0
$GPGGA,131434.000,4728.4367,N,01903.4743,E,1,7,1.15,94.9,M,41.1,M,,*6E

utc: 131434.000
19.034743
47.284367
0.0
$GPGGA,131435.000,4728.4365,N,01903.4744,E,1,7,1.06,94.7,M,41.1,M,,*66

utc: 131435.000
19.034744
47.284365
0.0
$GPGGA,131436.000,4728.4363,N,01903.4743,E,1,7,1.06,94.5,M,41.1,M,,*66

utc: 131436.000
19.034743
47.284363
0.0
$GPGGA,131437.000,4728.4359,N,01903.4745,E,1,7,1.06,95.0,M,41.1,M,,*6C

utc: 131437.000
19.034745
47.284359
0.0
$GPGGA,131438.000,4728.4359,N,01903.4746,E,1,7,1.06,95.0,M,41.1,M,,*60

utc: 131438.000
19.034746
47.284359
0.0
$GPGGA,131439.000,4728.4359,N,01903.4746,E,1,7,1.06,95.0,M,41.1,M,,*61

utc: 131439.000
19.034746
47.284359
0.0
$GPGGA,131440.000,4728.4360,N,01903.4747,E,1,7,1.06,95.0,M,41.1,M,,*64

utc: 131440.000
19.034747
47.28436
0.0
$GPGGA,131441.000,4728.4360,N,01903.4748,E,1,7,1.06,95.1,M,41.1,M,,*6B

utc: 131441.000
19.034748
47.28436
0.0
$GPGGA,131442.000,4728.4360,N,01903.4748,E,1,7,1.15,95.0,M,41.1,M,,*6B

utc: 131442.000
19.034748
47.28436
0.0
$GPGGA,131443.000,4728.4360,N,01903.4747,E,1,7,1.06,95.0,M,41.1,M,,*67

utc: 131443.000
19.034747
47.28436
0.0
$GPGGA,131444.000,4728.4360,N,01903.4747,E,1,7,1.06,95.0,M,41.1,M,,*60

utc: 131444.000
19.034747
47.28436
0.0
$GPGGA,131445.000,4728.4360,N,01903.4747,E,1,7,1.15,95.0,M,41.1,M,,*63

utc: 131445.000
19.034747
47.28436
0.0
$GPGGA,131446.000,4728.4360,N,01903.4747,E,1,7,1.06,95.0,M,41.1,M,,*62

utc: 131446.000
19.034747
47.28436
0.0
$GPGGA,131447.000,4728.4360,N,01903.4747,E,1,7,1.06,95.0,M,41.1,M,,*63

utc: 131447.000
19.034747
47.28436
0.0
$GPGGA,131448.000,4728.4360,N,01903.4747,E,1,7,1.06,95.0,M,41.1,M,,*6C

utc: 131448.000
19.034747
47.28436
0.0
$GPGGA,131449.000,4728.4361,N,01903.4749,E,1,7,1.06,95.0,M,41.1,M,,*62

utc: 131449.000
19.034749
47.284361
0.0
$GPGGA,131450.000,4728.4362,N,01903.4749,E,1,7,1.06,95.0,M,41.1,M,,*69

utc: 131450.000
19.034749
47.284362
0.0
$GPGGA,131451.000,4728.4350,N,01903.4769,E,1,7,1.06,98.9,M,41.1,M,,*6F

utc: 131451.000
19.034769
47.28435
0.0
$GPGGA,131452.000,4728.4345,N,01903.4775,E,1,7,1.06,99.6,M,41.1,M,,*6B

utc: 131452.000
19.034775
47.284345
0.0
$GPGGA,131453.000,4728.4344,N,01903.4772,E,1,7,1.06,99.7,M,41.1,M,,*6D

utc: 131453.000
19.034772
47.284344
0.0
$GPGGA,131454.000,4728.4343,N,01903.4766,E,1,7,1.06,100.2,M,41.1,M,,*5C

utc: 131454.000
19.034766
47.284343
0.0
$GPGGA,131455.000,4728.4344,N,01903.4764,E,1,7,1.06,100.1,M,41.1,M,,*5B

utc: 131455.000
19.034764
47.284344
0.0
$GPGGA,131456.000,4728.4344,N,01903.4762,E,1,7,1.06,100.1,M,41.1,M,,*5E

utc: 131456.000
19.034762
47.284344
0.0
$GPGGA,131457.000,4728.4345,N,01903.4760,E,1,7,1.06,100.1,M,41.1,M,,*5C

utc: 131457.000
19.03476
47.284345
0.0
$GPGGA,131458.000,4728.4345,N,01903.4758,E,1,7,1.06,100.1,M,41.1,M,,*58

utc: 131458.000
19.034758
47.284345
0.0
$GPGGA,131459.000,4728.4346,N,01903.4753,E,1,7,1.06,100.3,M,41.1,M,,*53

utc: 131459.000
19.034753
47.284346
0.0
$GPGGA,131500.000,4728.4343,N,01903.4746,E,1,7,1.06,100.1,M,41.1,M,,*5D

utc: 131500.000
19.034746
47.284343
0.0
$GPGGA,131501.000,4728.4340,N,01903.4736,E,1,7,1.06,99.7,M,41.1,M,,*6F

utc: 131501.000
19.034736
47.28434
0.0
$GPGGA,131502.000,4728.4339,N,01903.4732,E,1,7,1.06,99.1,M,41.1,M,,*60

utc: 131502.000
19.034732
47.284339
0.0
$GPGGA,131503.000,4728.4339,N,01903.4725,E,1,7,1.06,98.8,M,41.1,M,,*6F

utc: 131503.000
19.034725
47.284339
0.0
$GPGGA,131504.000,4728.4339,N,01903.4718,E,1,6,1.13,98.8,M,41.1,M,,*63

utc: 131504.000
19.034718
47.284339
0.0
$GPGGA,131505.000,4728.4340,N,01903.4711,E,1,6,1.13,99.0,M,41.1,M,,*6C

utc: 131505.000
19.034711
47.28434
0.0
$GPGGA,131506.000,4728.4342,N,01903.4703,E,1,6,1.13,98.7,M,41.1,M,,*68

utc: 131506.000
19.034703
47.284342
0.0
$GPGGA,131507.000,4728.4342,N,01903.4696,E,1,6,1.13,98.6,M,41.1,M,,*65

utc: 131507.000
19.034696
47.284342
0.0
$GPGGA,131508.000,4728.4342,N,01903.4689,E,1,6,1.13,98.5,M,41.1,M,,*67

utc: 131508.000
19.034689
47.284342
0.0
$GPGGA,131509.000,4728.4341,N,01903.4683,E,1,6,1.13,98.4,M,41.1,M,,*6E

utc: 131509.000
19.034683
47.284341
0.0
$GPGGA,131510.000,4728.4341,N,01903.4675,E,1,6,1.13,98.4,M,41.1,M,,*6F

utc: 131510.000
19.034675
47.284341
0.0
$GPGGA,131511.000,4728.4342,N,01903.4670,E,1,6,1.13,98.4,M,41.1,M,,*68

utc: 131511.000
19.03467
47.284342
0.0
$GPGGA,131512.000,4728.4344,N,01903.4664,E,1,6,1.13,98.2,M,41.1,M,,*6E

utc: 131512.000
19.034664
47.284344
0.0
$GPGGA,131513.000,4728.4343,N,01903.4661,E,1,6,1.13,98.1,M,41.1,M,,*6E

utc: 131513.000
19.034661
47.284343
0.0
$GPGGA,131514.000,4728.4345,N,01903.4653,E,1,6,1.13,97.9,M,41.1,M,,*69

utc: 131514.000
19.034653
47.284345
0.0
$GPGGA,131515.000,4728.4346,N,01903.4649,E,1,6,1.13,97.8,M,41.1,M,,*61

utc: 131515.000
19.034649
47.284346
0.0
$GPGGA,131516.000,4728.4349,N,01903.4643,E,1,6,1.13,97.9,M,41.1,M,,*66

utc: 131516.000
19.034643
47.284349
0.0
$GPGGA,131517.000,4728.4348,N,01903.4638,E,1,6,1.13,98.0,M,41.1,M,,*6C

utc: 131517.000
19.034638
47.284348
0.0
$GPGGA,131518.000,4728.4349,N,01903.4634,E,1,6,1.13,98.0,M,41.1,M,,*6E

utc: 131518.000
19.034634
47.284349
0.0
$GPGGA,131519.000,4728.4349,N,01903.4628,E,1,6,1.13,98.1,M,41.1,M,,*63

utc: 131519.000
19.034628
47.284349
0.0
$GPGGA,131520.000,4728.4349,N,01903.4620,E,1,6,1.13,98.2,M,41.1,M,,*62

utc: 131520.000
19.03462
47.284349
0.0
$GPGGA,131521.000,4728.4349,N,01903.4612,E,1,6,1.13,98.3,M,41.1,M,,*63

utc: 131521.000
19.034612
47.284349
0.0
$GPGGA,131522.000,4728.4353,N,01903.4603,E,1,6,1.13,98.4,M,41.1,M,,*6C

utc: 131522.000
19.034603
47.284353
0.0
